[{"id":"bb68bfa9-2234-4132-9c11-69c97ebc70c6","receivedDateTime":"2018-02-12T15:04:28Z","dispatchedDateTime":"2018-09-18T15:49:49Z","complainantPerson":{"id":"05136f6f-bd97-499a-8ec8-138cc4eaf9f6","isBusiness":false,"businessName":"Tagchat","fullName":"Minda Date"},"locationPrimary,id":"3f57ce42-cdd6-4416-84a2-b4c42e28414c","locationPrimary":{"city":"Burtunay","latitude":42.99082,"longitude":46.632565}},
{"id":"ca96969c-ba6b-4777-820c-34a6e654c607","receivedDateTime":"2018-09-21T00:13:23Z","dispatchedDateTime":"2018-08-29T17:49:41Z","complainantPerson":{"id":"505880af-df27-45c8-90ab-29ded975555c","isBusiness":true,"businessName":"Kimia","fullName":"Darwin Loynes"},"locationPrimary,id":"ae0f27cc-4b2b-41dd-960f-247ba4a0cf09","locationPrimary":{"city":"Cikalong","latitude":-7.45,"longitude":108.033333}},
{"id":"4489e6d2-a8f3-42c2-aced-734b09955504","receivedDateTime":"2018-05-18T22:41:46Z","dispatchedDateTime":"2018-12-27T16:22:52Z","complainantPerson":{"id":"a6c87e76-38a8-4578-a8eb-d1130a437f88","isBusiness":true,"businessName":"Trunyx","fullName":"Briana Blanque"},"locationPrimary,id":"c32ec25a-e501-470e-9a47-5e493780551b","locationPrimary":{"city":"San Pedro","latitude":25.7572143,"longitude":-102.9838564}},
{"id":"098d7f75-9723-47de-8ff2-5971906838c2","receivedDateTime":"2018-04-16T20:41:00Z","dispatchedDateTime":"2018-07-12T19:15:09Z","complainantPerson":{"id":"e226c7be-fa83-41f5-8d35-4dd0afe11290","isBusiness":true,"businessName":"Feedbug","fullName":"Berenice Johnston"},"locationPrimary,id":"9a911744-188c-4543-a751-a2f0d86513a4","locationPrimary":{"city":"Zbiroh","latitude":49.8602445,"longitude":13.7726288}},
{"id":"d77bbb3e-f3b0-477e-9f3e-13af4666d392","receivedDateTime":"2018-07-11T22:11:57Z","dispatchedDateTime":"2018-04-12T13:10:24Z","complainantPerson":{"id":"f96f6e3b-c570-4d53-89e9-e3648c6e44b7","isBusiness":true,"businessName":"Rhyzio","fullName":"Valenka Mennell"},"locationPrimary,id":"386e2eae-fadc-4b28-b982-424f80aae344","locationPrimary":{"city":"Ambulong","latitude":11.9528558,"longitude":121.9311073}},
{"id":"e4e9bfad-401b-49d1-ac82-b18a1fbdc50c","receivedDateTime":"2018-04-07T03:50:08Z","dispatchedDateTime":"2018-05-18T15:49:42Z","complainantPerson":{"id":"be800d45-117d-4f98-b175-c7983a218d7c","isBusiness":true,"businessName":"JumpXS","fullName":"Jeana Seiller"},"locationPrimary,id":"e46c761e-2cfb-48cc-840f-d102f9947758","locationPrimary":{"city":"Xinghuo","latitude":40.2023282,"longitude":116.2398367}},
{"id":"a3069b2e-22d7-45ed-a84f-36830eabba50","receivedDateTime":"2018-02-04T05:06:11Z","dispatchedDateTime":"2018-05-03T22:24:57Z","complainantPerson":{"id":"b616d58c-0991-448a-803f-75af8ee8edae","isBusiness":false,"businessName":"Quatz","fullName":"Carilyn Lie"},"locationPrimary,id":"04b50104-43fc-42b9-921d-a96afdfeced7","locationPrimary":{"city":"Cartí Suitupo","latitude":"9.47417","longitude":"-78.96667"}},
{"id":"4d26439c-e6e5-41ab-923c-3f4031ab295e","receivedDateTime":"2018-03-18T01:27:46Z","dispatchedDateTime":"2018-07-14T07:13:26Z","complainantPerson":{"id":"e50b6879-2214-4243-b777-829e38a89f1d","isBusiness":false,"businessName":"Geba","fullName":"Vince Turville"},"locationPrimary,id":"0fa463b0-9e75-45bb-981f-c958a796931c","locationPrimary":{"city":"Xinjiebu","latitude":28.22335,"longitude":115.062214}},
{"id":"7e8bcc3a-452f-498b-8e69-f42f362db491","receivedDateTime":"2018-07-03T08:57:28Z","dispatchedDateTime":"2018-10-26T19:56:22Z","complainantPerson":{"id":"fe49a109-34cb-47b5-964c-3cd47475a344","isBusiness":false,"businessName":"Edgeclub","fullName":"Gracia Beauchamp"},"locationPrimary,id":"602f5957-b27f-4fde-a492-0810bf1044d3","locationPrimary":{"city":"Nancang","latitude":28.682892,"longitude":115.858197}},
{"id":"176345e2-0fd7-418b-b6a1-f9966ebd23b0","receivedDateTime":"2019-01-06T12:00:09Z","dispatchedDateTime":"2019-01-17T06:02:37Z","complainantPerson":{"id":"d7d6d33d-b041-4651-81a0-c9f8ce9f4163","isBusiness":false,"businessName":"Thoughtsphere","fullName":"Sisile Toffel"},"locationPrimary,id":"bfffc7ba-08e4-4fbb-a3dc-f674fa70933a","locationPrimary":{"city":"Sidi Yahya Ou Saad","latitude":32.6797904,"longitude":-5.5781378}},
{"id":"931d000b-e99a-4ab4-a687-6c1c9f10e286","receivedDateTime":"2018-11-25T07:03:53Z","dispatchedDateTime":"2018-04-27T19:20:05Z","complainantPerson":{"id":"30b92b1c-7748-4107-a654-b152ccf22f04","isBusiness":false,"businessName":"Blogspan","fullName":"Cicely Delf"},"locationPrimary,id":"d54b5acb-d787-4fb6-976b-5768cac82aa2","locationPrimary":{"city":"Montbéliard","latitude":45.417087,"longitude":-0.302506}},
{"id":"c30e174b-3a98-4a79-8490-0c71556aa0a6","receivedDateTime":"2018-03-17T08:20:11Z","dispatchedDateTime":"2018-11-13T08:11:55Z","complainantPerson":{"id":"df250b6c-40ec-4dab-9e15-ca2ec89f89e2","isBusiness":false,"businessName":"DabZ","fullName":"Ingra Blackly"},"locationPrimary,id":"622c4fc2-e1d3-4a6f-b4d8-b910acb74150","locationPrimary":{"city":"Tengjia","latitude":37.054157,"longitude":122.354016}},
{"id":"0efc8757-1173-4ac2-93a3-2a49a233fc90","receivedDateTime":"2018-04-22T07:53:12Z","dispatchedDateTime":"2018-07-05T23:21:35Z","complainantPerson":{"id":"34389ce5-020f-4357-bd15-dbcb65de5daf","isBusiness":true,"businessName":"Mydo","fullName":"Hana Commins"},"locationPrimary,id":"399e5cbc-abd5-4fde-9134-b7ff43299eb7","locationPrimary":{"city":"Maracanaú","latitude":-3.879263,"longitude":-38.612338}},
{"id":"7f48ab74-7350-4672-8169-d2c80c0a52b5","receivedDateTime":"2018-04-02T18:25:58Z","dispatchedDateTime":"2018-09-22T08:38:17Z","complainantPerson":{"id":"31b1b70a-5a9a-46ac-8fb3-0792b173135a","isBusiness":false,"businessName":"Skipfire","fullName":"Ralina Parvin"},"locationPrimary,id":"fac56a32-a738-4192-9e14-00a80ad95387","locationPrimary":{"city":"Oumé","latitude":6.3741312,"longitude":-5.4096633}},
{"id":"13193479-42ed-4dab-bcf4-50d8c55747c9","receivedDateTime":"2018-11-07T07:16:12Z","dispatchedDateTime":"2018-03-28T00:21:59Z","complainantPerson":{"id":"9d074adb-dc3b-4a64-aaf7-b2270a3fe944","isBusiness":false,"businessName":"Oyoyo","fullName":"Esteban Duddan"},"locationPrimary,id":"6254a4fd-f0e2-444b-b817-495bff1ccd5b","locationPrimary":{"city":"Moss","latitude":59.3779388,"longitude":10.7605604}},
{"id":"9dc512da-abd9-472d-ab94-dad9d9c9b4f2","receivedDateTime":"2019-01-21T17:51:09Z","dispatchedDateTime":"2018-07-25T18:28:45Z","complainantPerson":{"id":"9846e1a7-271c-440f-9963-dc8a0013ca5d","isBusiness":true,"businessName":"Zoomzone","fullName":"Ransell Littley"},"locationPrimary,id":"b533deda-b4a4-4005-8ce4-f95840ba8cdf","locationPrimary":{"city":"Sulangan","latitude":10.7930794,"longitude":125.6860723}},
{"id":"514bfba0-9682-42af-b2cc-309290e02310","receivedDateTime":"2018-06-11T04:11:09Z","dispatchedDateTime":"2018-02-08T09:58:33Z","complainantPerson":{"id":"47e45e47-2d96-4c4c-beba-52da73b27d23","isBusiness":true,"businessName":"Voomm","fullName":"Farah Haversham"},"locationPrimary,id":"8aaaa9e6-2610-4d88-a1a4-8b5727ee89d5","locationPrimary":{"city":"Alexandria","latitude":38.8189466,"longitude":-77.0593246}},
{"id":"45a146ca-f320-4179-8402-7b0752e8581e","receivedDateTime":"2018-05-02T17:57:23Z","dispatchedDateTime":"2018-12-17T02:49:55Z","complainantPerson":{"id":"c1485d24-ddc0-493f-b3a0-716b45c1b7ac","isBusiness":false,"businessName":"Jabbercube","fullName":"Raphael Manach"},"locationPrimary,id":"dad45f04-9c42-4c51-a2ea-60f34dc1885e","locationPrimary":{"city":"Ciela Lebak","latitude":-7.2505074,"longitude":107.7928499}},
{"id":"d69bf59e-c019-4365-8275-ba87dab3029f","receivedDateTime":"2018-12-10T20:38:47Z","dispatchedDateTime":"2018-12-06T12:35:40Z","complainantPerson":{"id":"e5774f74-d708-4e4f-92d5-822a2fedbe45","isBusiness":false,"businessName":"Devbug","fullName":"Wallace Chiechio"},"locationPrimary,id":"d3be24dd-df39-4950-bf3c-310ae0185d03","locationPrimary":{"city":"Birigui","latitude":-21.2922593,"longitude":-50.3407923}},
{"id":"1ebe3ebc-e19e-49ec-a8e8-8cafea37b7b8","receivedDateTime":"2018-10-03T20:26:21Z","dispatchedDateTime":"2018-10-30T15:51:18Z","complainantPerson":{"id":"269cb4f0-f412-4cce-b019-50c985c03b88","isBusiness":true,"businessName":"Omba","fullName":"Rhona Curtayne"},"locationPrimary,id":"5b43f863-d03d-4619-80d8-d0377ffe8463","locationPrimary":{"city":"Laholm","latitude":56.5006765,"longitude":13.0587651}},
{"id":"c0215b4a-0b86-4936-9fd8-e8ecbaf33191","receivedDateTime":"2018-11-13T20:29:07Z","dispatchedDateTime":"2018-11-01T21:25:38Z","complainantPerson":{"id":"f3b1eefa-452c-4af1-b250-cb0559bb27f9","isBusiness":false,"businessName":"Wikizz","fullName":"Paul Clemenceau"},"locationPrimary,id":"05de04fc-4d16-4c26-aec1-e2c81ed42181","locationPrimary":{"city":"Hashaat","latitude":47.35,"longitude":103.4166669}},
{"id":"cd901abf-cde1-469d-91fd-64196ed7ee63","receivedDateTime":"2018-02-15T04:09:29Z","dispatchedDateTime":"2018-08-25T20:31:08Z","complainantPerson":{"id":"f419eb70-7689-44a7-baf3-a24e8de0d7e3","isBusiness":false,"businessName":"Viva","fullName":"Burnard Zamorano"},"locationPrimary,id":"55a2d7c6-c5a3-401b-b224-13327c6cc163","locationPrimary":{"city":"Kuala Lumpur","latitude":3.1523104,"longitude":101.7178316}},
{"id":"70f2a46a-09cc-4dfd-b1d4-782f5d7f2a64","receivedDateTime":"2018-05-30T03:38:18Z","dispatchedDateTime":"2018-07-09T23:15:12Z","complainantPerson":{"id":"8fa73dca-f2ba-442f-8fc3-2ac4a0520b06","isBusiness":true,"businessName":"Thoughtmix","fullName":"Osbert Murrigan"},"locationPrimary,id":"ed41e323-7e12-4314-9510-a356ab2addff","locationPrimary":{"city":"Wangunsari","latitude":-6.8432007,"longitude":107.612654}},
{"id":"ef197410-ba39-441c-aaa8-76b4865d3972","receivedDateTime":"2018-04-11T06:39:20Z","dispatchedDateTime":"2018-08-04T22:23:48Z","complainantPerson":{"id":"e5476f54-3c76-4bac-aaa0-483245727a34","isBusiness":true,"businessName":"Blogtags","fullName":"Colly Hospital"},"locationPrimary,id":"577739d4-44dc-4ebe-b8b0-e56f32eeaa19","locationPrimary":{"city":"Włoszczowa","latitude":50.85237,"longitude":19.9677201}},
{"id":"ab9ab6af-35cc-4850-8fa7-c14697fac1e3","receivedDateTime":"2018-10-25T23:03:55Z","dispatchedDateTime":"2018-07-24T09:52:48Z","complainantPerson":{"id":"94e24b13-9f80-4b46-9a47-fc16d96ea3b4","isBusiness":true,"businessName":"Wikizz","fullName":"Natty Crowe"},"locationPrimary,id":"5c1ac30f-6cc6-4821-97cb-e6aa03d06c73","locationPrimary":{"city":"Jambangan","latitude":-7.3210819,"longitude":112.718192}},
{"id":"62edb2ad-54da-486f-a58b-1273b1900e49","receivedDateTime":"2018-08-06T20:33:06Z","dispatchedDateTime":"2018-05-27T13:02:59Z","complainantPerson":{"id":"3cf1c868-cb09-4e6e-bfe1-cd2a27f87e4a","isBusiness":true,"businessName":"Youspan","fullName":"Bonnie Mattiassi"},"locationPrimary,id":"cd76079a-4ef8-4297-95de-e95e2c17c7a5","locationPrimary":{"city":"Ngaoundéré","latitude":7.3381488,"longitude":13.5668302}},
{"id":"ea381b85-3b94-4095-881d-373bd0604bc4","receivedDateTime":"2019-01-13T19:01:17Z","dispatchedDateTime":"2018-05-11T21:40:47Z","complainantPerson":{"id":"6ce5b11f-26f9-4167-978e-e6d97c796ceb","isBusiness":false,"businessName":"Miboo","fullName":"Kassie Bigmore"},"locationPrimary,id":"c927a42c-37b9-4a47-b18f-2b145da973b4","locationPrimary":{"city":"Huazhaizi","latitude":"38.5","longitude":"101.21667"}},
{"id":"a15907d4-eb2d-4607-81c4-63e0cfec878d","receivedDateTime":"2018-06-13T19:05:39Z","dispatchedDateTime":"2018-07-08T07:01:20Z","complainantPerson":{"id":"d5c1b838-9a13-41fa-adb1-ca9506e42712","isBusiness":true,"businessName":"Zoombeat","fullName":"Hastings Karleman"},"locationPrimary,id":"e9cc7344-8ce6-48ac-984f-2ab26455422d","locationPrimary":{"city":"Šentjur","latitude":46.218184,"longitude":15.38742}},
{"id":"73ce8933-b0bc-4f7b-ad5a-afa2d73fd8ec","receivedDateTime":"2018-05-21T17:55:14Z","dispatchedDateTime":"2018-04-09T03:29:32Z","complainantPerson":{"id":"7b3a1ee0-c06b-4db8-9cad-2b87b4e065a7","isBusiness":false,"businessName":"Podcat","fullName":"Rhodia Izchaki"},"locationPrimary,id":"a02cf19d-e259-451b-83d7-30cd49c5e719","locationPrimary":{"city":"Huangtang","latitude":31.644606,"longitude":119.781147}},
{"id":"21fa9679-b8cb-4a93-80a5-91b91a5087fd","receivedDateTime":"2018-04-04T02:20:48Z","dispatchedDateTime":"2018-02-04T05:53:21Z","complainantPerson":{"id":"0ee30289-796d-435c-b5ea-1c8b212961bb","isBusiness":true,"businessName":"Abata","fullName":"Lucais Stallworth"},"locationPrimary,id":"5ab54c12-18c9-4fe9-8414-618f2ebaef06","locationPrimary":{"city":"Sedlice","latitude":50.153206,"longitude":15.7292147}},
{"id":"1b5a16b2-ff0a-4df1-85b4-fac96db4bd39","receivedDateTime":"2018-12-03T13:21:37Z","dispatchedDateTime":"2018-05-12T14:06:44Z","complainantPerson":{"id":"34451ea2-7456-4d91-b179-efe594c7cd53","isBusiness":true,"businessName":"Jaxnation","fullName":"Cobby Stains"},"locationPrimary,id":"27c13af7-6039-44d0-966f-4a62a4003739","locationPrimary":{"city":"Budzów","latitude":49.788203,"longitude":19.70598}},
{"id":"1bb6045b-c252-4ae1-8cc9-79fa8385ec58","receivedDateTime":"2018-08-02T17:25:48Z","dispatchedDateTime":"2018-01-30T19:36:46Z","complainantPerson":{"id":"2bfa2146-4055-4ada-a53e-88fcaab1587b","isBusiness":true,"businessName":"Realfire","fullName":"Haleigh Coggeshall"},"locationPrimary,id":"1806dfdf-385a-4bf9-9dd7-ef6b85bd335a","locationPrimary":{"city":"Sukadami","latitude":-6.3636897,"longitude":107.1100534}},
{"id":"5d740e3c-0cd9-43c7-8fe4-5d430c410049","receivedDateTime":"2018-08-28T04:07:20Z","dispatchedDateTime":"2018-04-22T02:02:23Z","complainantPerson":{"id":"f35db13c-6f38-4025-ae10-f71a9a8e5628","isBusiness":false,"businessName":"Dabjam","fullName":"Debera Housecroft"},"locationPrimary,id":"42d90b08-2ac5-440b-a9a3-c8bf64b56c60","locationPrimary":{"city":"Vuka","latitude":45.4340688,"longitude":18.492549}},
{"id":"16848d9f-c7ae-4698-b5f2-e55a6256b013","receivedDateTime":"2018-08-14T11:55:48Z","dispatchedDateTime":"2018-04-23T00:55:50Z","complainantPerson":{"id":"3e4dca2a-f903-4981-8455-0050342b9fe4","isBusiness":false,"businessName":"Blogtags","fullName":"Mason Tritten"},"locationPrimary,id":"75b44ea5-84e3-446f-a346-f1bea809c0ad","locationPrimary":{"city":"Bussum","latitude":52.2766397,"longitude":5.162358}},
{"id":"1116be08-6214-4310-af77-6918b9d3e18b","receivedDateTime":"2018-02-28T15:33:50Z","dispatchedDateTime":"2018-11-10T23:05:12Z","complainantPerson":{"id":"1dc5b4e7-efd8-484d-9403-4d52dcafb9ff","isBusiness":true,"businessName":"Oloo","fullName":"Fredelia Holton"},"locationPrimary,id":"859f21b3-4536-4454-b0ec-639102e56c47","locationPrimary":{"city":"Tahala","latitude":34.0542897,"longitude":-4.4259259}},
{"id":"d9058998-2891-4bd9-bcf7-fc565a75e59f","receivedDateTime":"2018-06-11T02:21:03Z","dispatchedDateTime":"2018-02-03T23:06:15Z","complainantPerson":{"id":"23bcf45a-db1c-4903-a3e0-67f754e001ef","isBusiness":false,"businessName":"Topicshots","fullName":"Keefer Heyward"},"locationPrimary,id":"05bd91fe-5f14-4e7e-9b2e-bfb9a7910069","locationPrimary":{"city":"Luodian","latitude":31.415251,"longitude":121.346638}},
{"id":"c14c1639-592a-4ce0-8312-26f2ac627f5e","receivedDateTime":"2018-09-26T20:35:31Z","dispatchedDateTime":"2018-08-01T05:10:20Z","complainantPerson":{"id":"290f2f1d-dad5-461f-b741-44822e8507ae","isBusiness":true,"businessName":"Camido","fullName":"Gan Westmoreland"},"locationPrimary,id":"67fd4340-1498-4f76-9ac9-9d9130ba72bc","locationPrimary":{"city":"Valleymount","latitude":53.3655256,"longitude":-6.3077823}},
{"id":"1c9cfe1d-d87d-4431-a6c8-a0a033342a06","receivedDateTime":"2018-07-20T16:09:36Z","dispatchedDateTime":"2018-08-01T01:38:07Z","complainantPerson":{"id":"89dd8d46-85ad-4cdb-9e8d-ae41ca69e4cb","isBusiness":true,"businessName":"Ozu","fullName":"Melissa Hourstan"},"locationPrimary,id":"bbe8b04f-a0e9-4ee4-b498-1162ffaa75e8","locationPrimary":{"city":"Drochia","latitude":47.837001,"longitude":28.4339797}},
{"id":"ee08c9b6-7e8f-4df6-ad17-8865bb011b38","receivedDateTime":"2018-07-11T15:53:55Z","dispatchedDateTime":"2018-08-09T02:46:11Z","complainantPerson":{"id":"627d9b4f-e67e-45b1-a80c-31518e298773","isBusiness":true,"businessName":"Devbug","fullName":"Charleen Caudrey"},"locationPrimary,id":"b2d66acd-a1a6-4f2e-af1b-c67729bf724a","locationPrimary":{"city":"Ingarö","latitude":59.2889777,"longitude":18.3689021}},
{"id":"758cf673-b801-40cc-b681-6f8805f769ac","receivedDateTime":"2018-02-03T18:09:28Z","dispatchedDateTime":"2018-02-25T00:59:29Z","complainantPerson":{"id":"41b76105-54df-4330-8999-ba144468eb3f","isBusiness":true,"businessName":"Roombo","fullName":"Dorita Ramsdale"},"locationPrimary,id":"456de655-6793-4deb-9bc9-e7a4c65032c4","locationPrimary":{"city":"Al Mughayyir","latitude":32.421701,"longitude":35.386433}},
{"id":"2c359a6a-7986-4c79-a0f8-07ca773418bb","receivedDateTime":"2018-02-01T16:30:17Z","dispatchedDateTime":"2018-03-15T00:52:02Z","complainantPerson":{"id":"fb881a69-a6a4-496c-9981-e01a825ae793","isBusiness":false,"businessName":"Chatterpoint","fullName":"Donny Hoyland"},"locationPrimary,id":"92db0b2f-352f-4480-a5ca-8a1de3d56a46","locationPrimary":{"city":"Koni-Djodjo","latitude":-12.2324162,"longitude":44.4806961}},
{"id":"e5874b1f-1503-404d-a807-70bd81c168eb","receivedDateTime":"2018-05-24T03:18:19Z","dispatchedDateTime":"2019-01-17T01:03:46Z","complainantPerson":{"id":"40a9aa4d-f7a8-49ab-8755-9bbd86ae0359","isBusiness":true,"businessName":"Yombu","fullName":"Zandra Nacci"},"locationPrimary,id":"4c629d9d-a413-4de0-839a-ac305d1818d4","locationPrimary":{"city":"Comrat","latitude":46.2893452,"longitude":28.6519897}},
{"id":"f4533bda-7c19-41fb-9834-987c996cdfe7","receivedDateTime":"2018-08-10T02:40:49Z","dispatchedDateTime":"2018-04-19T18:33:00Z","complainantPerson":{"id":"a56e6ed0-fae6-4d46-a5ef-c1de060a352b","isBusiness":false,"businessName":"Gigashots","fullName":"Town Gabbatiss"},"locationPrimary,id":"89e50cf4-f0f0-4473-8b55-c7ea4c24dd5e","locationPrimary":{"city":"Juàzeirinho","latitude":-7.1504031,"longitude":-34.9625932}},
{"id":"1c25d56e-4900-4ae1-88be-472e767f0566","receivedDateTime":"2018-05-11T23:56:45Z","dispatchedDateTime":"2018-10-09T15:19:35Z","complainantPerson":{"id":"a92f2a6f-dcbc-4224-8ddc-e3a3158db549","isBusiness":false,"businessName":"Meeveo","fullName":"Ximenez Lanceter"},"locationPrimary,id":"9338a7c1-b15d-4d29-8f4c-1822314b9503","locationPrimary":{"city":"Kiruna","latitude":67.8256178,"longitude":20.3351033}},
{"id":"2558d49c-e283-414e-a5e7-596b80dbaa1e","receivedDateTime":"2018-12-13T08:06:32Z","dispatchedDateTime":"2018-02-20T11:25:01Z","complainantPerson":{"id":"2807649d-9a35-4c17-95c3-6f2a12e0d689","isBusiness":false,"businessName":"Zooxo","fullName":"Wes Cambell"},"locationPrimary,id":"e9e04ba3-bb28-4fff-a6f1-b8d24a25ac51","locationPrimary":{"city":"Sortavala","latitude":61.6487504,"longitude":30.5926449}},
{"id":"a766d916-c75b-4f04-8e7a-adbd2678b304","receivedDateTime":"2018-03-13T05:29:53Z","dispatchedDateTime":"2018-03-03T11:27:31Z","complainantPerson":{"id":"6b53d818-e4b9-4ea8-92c1-91dd7eebcaab","isBusiness":false,"businessName":"Thoughtbridge","fullName":"Dewitt Whybrow"},"locationPrimary,id":"f838b77b-ac2d-44c9-80bf-2bed3f8c74e4","locationPrimary":{"city":"Studzienice","latitude":54.0541924,"longitude":17.5871593}},
{"id":"b1c0aca8-47af-402b-9a00-64b10f83f19c","receivedDateTime":"2018-05-21T07:53:12Z","dispatchedDateTime":"2018-08-15T20:42:00Z","complainantPerson":{"id":"2446a200-d0e5-468e-8a0b-c3cf452736b7","isBusiness":true,"businessName":"Plajo","fullName":"Trudy Wildbore"},"locationPrimary,id":"68d09e97-6c60-4dc4-9011-c8f94ba305b5","locationPrimary":{"city":"Qaşr al Farāfirah","latitude":"27.0568","longitude":"27.96979"}},
{"id":"b2adf8a8-4a44-4628-b4f0-66b705557f68","receivedDateTime":"2018-09-22T18:48:15Z","dispatchedDateTime":"2018-11-06T01:26:53Z","complainantPerson":{"id":"83287bc1-f3ff-4c2b-abd1-9c51633eca88","isBusiness":true,"businessName":"Tanoodle","fullName":"Pepi Overbury"},"locationPrimary,id":"89f6d69c-d96e-496c-9c69-72191c8a0d5f","locationPrimary":{"city":"Aldana","latitude":0.882544,"longitude":-77.700425}},
{"id":"7c7f0d6a-3dd2-4cc8-9772-dbe4adbbeebf","receivedDateTime":"2018-12-20T22:58:10Z","dispatchedDateTime":"2018-05-29T07:52:37Z","complainantPerson":{"id":"2855d10a-e651-4a9c-b724-df5a54cd4d42","isBusiness":false,"businessName":"Dynabox","fullName":"Melosa Olifaunt"},"locationPrimary,id":"be6fca73-fdec-4201-9cd9-5b546f093d54","locationPrimary":{"city":"Lampang","latitude":18.2855395,"longitude":99.5127895}},
{"id":"72568d76-a2be-48e7-8d8f-c08f7dcb918e","receivedDateTime":"2018-09-12T18:29:17Z","dispatchedDateTime":"2018-10-16T08:43:35Z","complainantPerson":{"id":"8592ba7b-fb36-4fe4-8425-2d8f6bc27df9","isBusiness":false,"businessName":"Ainyx","fullName":"Pierrette Colebourne"},"locationPrimary,id":"7513ce57-e2d3-457d-ab2a-21e253c66c17","locationPrimary":{"city":"Ede","latitude":52.0442252,"longitude":5.6463088}}]
